{"site":"Le Plessis","twd":180,"boueesfixes":[],"boueesmobiles":[{"boueefixe":false,"id":0,"name":"Dog leg1","lon":-1.4735032254079,"lat":47.243143563271,"color":"navy","fillcolor":"red"},{"boueefixe":false,"id":1,"name":"Dog leg2","lon":-1.4733717960329,"lat":47.243143563271,"color":"navy","fillcolor":"red"},{"boueefixe":false,"id":2,"name":"Départ tribord","lon":-1.4735032254079,"lat":47.243396145335,"color":"yellow","fillcolor":"green"},{"boueefixe":false,"id":3,"name":"Départ bâbord","lon":-1.4733717960329,"lat":47.243396145335,"color":"yellow","fillcolor":"red"},{"boueefixe":false,"id":4,"name":"Porte tribord","lon":-1.4733717960329,"lat":47.243648727398,"color":"purple","fillcolor":"green"},{"boueefixe":false,"id":5,"name":"Porte bâbord","lon":-1.4735032254079,"lat":47.243648727398,"color":"purple","fillcolor":"red"}],"rectangle":[{"lon":-1.4733717960329,"lat":47.243648727398},{"lon":-1.4733717960329,"lat":47.243143563271},{"lon":-1.4735032254079,"lat":47.243143563271},{"lon":-1.4735032254079,"lat":47.243648727398}],"fantome":[{"lon":-1.4733731173171,"lat":47.243403456315},{"lon":-1.4746491941922,"lat":47.244163723387},{"lon":-1.4747445028388,"lat":47.243996571535},{"lon":-1.4746650789668,"lat":47.243592174074},{"lon":-1.4742414849832,"lat":47.243212941926},{"lon":-1.4736908128046,"lat":47.243272252936},{"lon":-1.4733731173171,"lat":47.243403456315}]}